{
  "location": {
    "long": -82.907123,
    "countryOrRegion": "United States",
    "provinceOrState": "Georgia",
    "county": null,
    "isoCode": "US-GA",
    "lat": 32.157435
  },
  "updatedDateTime": "2020-04-05T17:46:09.8276471Z",
  "stats": {
    "totalConfirmedCases": 6384,
    "newlyConfirmedCases": 0,
    "totalDeaths": 208,
    "newDeaths": 0,
    "totalRecoveredCases": 0,
    "newlyRecoveredCases": 0,
    "history": [
      {
        "date": "2020-01-22T00:00:00",
        "confirmed": 0,
        "deaths": 0,
        "recovered": 0
      },
      {
        "date": "2020-01-23T00:00:00",
        "confirmed": 0,
        "deaths": 0,
        "recovered": 0
      },
      {
        "date": "2020-01-24T00:00:00",
        "confirmed": 0,
        "deaths": 0,
        "recovered": 0
      },
      {
        "date": "2020-01-25T00:00:00",
        "confirmed": 0,
        "deaths": 0,
        "recovered": 0
      },
      {
        "date": "2020-01-26T00:00:00",
        "confirmed": 0,
        "deaths": 0,
        "recovered": 0
      },
      {
        "date": "2020-01-27T00:00:00",
        "confirmed": 0,
        "deaths": 0,
        "recovered": 0
      },
      {
        "date": "2020-01-28T00:00:00",
        "confirmed": 0,
        "deaths": 0,
        "recovered": 0
      },
      {
        "date": "2020-01-29T00:00:00",
        "confirmed": 0,
        "deaths": 0,
        "recovered": 0
      },
      {
        "date": "2020-01-30T00:00:00",
        "confirmed": 0,
        "deaths": 0,
        "recovered": 0
      },
      {
        "date": "2020-01-31T00:00:00",
        "confirmed": 0,
        "deaths": 0,
        "recovered": 0
      },
      {
        "date": "2020-02-01T00:00:00",
        "confirmed": 0,
        "deaths": 0,
        "recovered": 0
      },
      {
        "date": "2020-02-02T00:00:00",
        "confirmed": 0,
        "deaths": 0,
        "recovered": 0
      },
      {
        "date": "2020-02-03T00:00:00",
        "confirmed": 0,
        "deaths": 0,
        "recovered": 0
      },
      {
        "date": "2020-02-04T00:00:00",
        "confirmed": 0,
        "deaths": 0,
        "recovered": 0
      },
      {
        "date": "2020-02-05T00:00:00",
        "confirmed": 0,
        "deaths": 0,
        "recovered": 0
      },
      {
        "date": "2020-02-06T00:00:00",
        "confirmed": 0,
        "deaths": 0,
        "recovered": 0
      },
      {
        "date": "2020-02-07T00:00:00",
        "confirmed": 0,
        "deaths": 0,
        "recovered": 0
      },
      {
        "date": "2020-02-08T00:00:00",
        "confirmed": 0,
        "deaths": 0,
        "recovered": 0
      },
      {
        "date": "2020-02-09T00:00:00",
        "confirmed": 0,
        "deaths": 0,
        "recovered": 0
      },
      {
        "date": "2020-02-10T00:00:00",
        "confirmed": 0,
        "deaths": 0,
        "recovered": 0
      },
      {
        "date": "2020-02-11T00:00:00",
        "confirmed": 0,
        "deaths": 0,
        "recovered": 0
      },
      {
        "date": "2020-02-12T00:00:00",
        "confirmed": 0,
        "deaths": 0,
        "recovered": 0
      },
      {
        "date": "2020-02-13T00:00:00",
        "confirmed": 0,
        "deaths": 0,
        "recovered": 0
      },
      {
        "date": "2020-02-14T00:00:00",
        "confirmed": 0,
        "deaths": 0,
        "recovered": 0
      },
      {
        "date": "2020-02-15T00:00:00",
        "confirmed": 0,
        "deaths": 0,
        "recovered": 0
      },
      {
        "date": "2020-02-16T00:00:00",
        "confirmed": 0,
        "deaths": 0,
        "recovered": 0
      },
      {
        "date": "2020-02-17T00:00:00",
        "confirmed": 0,
        "deaths": 0,
        "recovered": 0
      },
      {
        "date": "2020-02-18T00:00:00",
        "confirmed": 0,
        "deaths": 0,
        "recovered": 0
      },
      {
        "date": "2020-02-19T00:00:00",
        "confirmed": 0,
        "deaths": 0,
        "recovered": 0
      },
      {
        "date": "2020-02-20T00:00:00",
        "confirmed": 0,
        "deaths": 0,
        "recovered": 0
      },
      {
        "date": "2020-02-21T00:00:00",
        "confirmed": 0,
        "deaths": 0,
        "recovered": 0
      },
      {
        "date": "2020-02-22T00:00:00",
        "confirmed": 0,
        "deaths": 0,
        "recovered": 0
      },
      {
        "date": "2020-02-23T00:00:00",
        "confirmed": 0,
        "deaths": 0,
        "recovered": 0
      },
      {
        "date": "2020-02-24T00:00:00",
        "confirmed": 0,
        "deaths": 0,
        "recovered": 0
      },
      {
        "date": "2020-02-25T00:00:00",
        "confirmed": 0,
        "deaths": 0,
        "recovered": 0
      },
      {
        "date": "2020-02-26T00:00:00",
        "confirmed": 0,
        "deaths": 0,
        "recovered": 0
      },
      {
        "date": "2020-02-27T00:00:00",
        "confirmed": 0,
        "deaths": 0,
        "recovered": 0
      },
      {
        "date": "2020-02-28T00:00:00",
        "confirmed": 0,
        "deaths": 0,
        "recovered": 0
      },
      {
        "date": "2020-02-29T00:00:00",
        "confirmed": 0,
        "deaths": 0,
        "recovered": 0
      },
      {
        "date": "2020-03-01T00:00:00",
        "confirmed": 0,
        "deaths": 0,
        "recovered": 0
      },
      {
        "date": "2020-03-02T00:00:00",
        "confirmed": 0,
        "deaths": 0,
        "recovered": 0
      },
      {
        "date": "2020-03-03T00:00:00",
        "confirmed": 2,
        "deaths": 0,
        "recovered": 0
      },
      {
        "date": "2020-03-04T00:00:00",
        "confirmed": 2,
        "deaths": 0,
        "recovered": 0
      },
      {
        "date": "2020-03-05T00:00:00",
        "confirmed": 2,
        "deaths": 0,
        "recovered": 0
      },
      {
        "date": "2020-03-06T00:00:00",
        "confirmed": 3,
        "deaths": 0,
        "recovered": 0
      },
      {
        "date": "2020-03-07T00:00:00",
        "confirmed": 5,
        "deaths": 0,
        "recovered": 0
      },
      {
        "date": "2020-03-08T00:00:00",
        "confirmed": 5,
        "deaths": 0,
        "recovered": 0
      },
      {
        "date": "2020-03-09T00:00:00",
        "confirmed": 10,
        "deaths": 0,
        "recovered": 0
      },
      {
        "date": "2020-03-10T00:00:00",
        "confirmed": 17,
        "deaths": 0,
        "recovered": 0
      },
      {
        "date": "2020-03-11T00:00:00",
        "confirmed": 23,
        "deaths": 0,
        "recovered": 0
      },
      {
        "date": "2020-03-12T00:00:00",
        "confirmed": 37,
        "deaths": 1,
        "recovered": 0
      },
      {
        "date": "2020-03-13T00:00:00",
        "confirmed": 42,
        "deaths": 1,
        "recovered": 0
      },
      {
        "date": "2020-03-14T00:00:00",
        "confirmed": 96,
        "deaths": 1,
        "recovered": 0
      },
      {
        "date": "2020-03-15T00:00:00",
        "confirmed": 112,
        "deaths": 1,
        "recovered": 0
      },
      {
        "date": "2020-03-16T00:00:00",
        "confirmed": 129,
        "deaths": 1,
        "recovered": 0
      },
      {
        "date": "2020-03-17T00:00:00",
        "confirmed": 169,
        "deaths": 1,
        "recovered": 0
      },
      {
        "date": "2020-03-18T00:00:00",
        "confirmed": 200,
        "deaths": 3,
        "recovered": 0
      },
      {
        "date": "2020-03-19T00:00:00",
        "confirmed": 291,
        "deaths": 10,
        "recovered": 0
      },
      {
        "date": "2020-03-20T00:00:00",
        "confirmed": 487,
        "deaths": 14,
        "recovered": 0
      },
      {
        "date": "2020-03-21T00:00:00",
        "confirmed": 557,
        "deaths": 20,
        "recovered": 0
      },
      {
        "date": "2020-03-22T00:00:00",
        "confirmed": 623,
        "deaths": 25,
        "recovered": 0
      },
      {
        "date": "2020-03-23T00:00:00",
        "confirmed": 805,
        "deaths": 26,
        "recovered": 0
      },
      {
        "date": "2020-03-24T00:00:00",
        "confirmed": 1099,
        "deaths": 38,
        "recovered": 0
      },
      {
        "date": "2020-03-25T00:00:00",
        "confirmed": 1381,
        "deaths": 47,
        "recovered": 0
      },
      {
        "date": "2020-03-26T00:00:00",
        "confirmed": 1777,
        "deaths": 56,
        "recovered": 0
      },
      {
        "date": "2020-03-27T00:00:00",
        "confirmed": 2204,
        "deaths": 65,
        "recovered": 0
      },
      {
        "date": "2020-03-28T00:00:00",
        "confirmed": 2450,
        "deaths": 79,
        "recovered": 0
      },
      {
        "date": "2020-03-29T00:00:00",
        "confirmed": 2687,
        "deaths": 84,
        "recovered": 0
      },
      {
        "date": "2020-03-30T00:00:00",
        "confirmed": 3035,
        "deaths": 102,
        "recovered": 0
      },
      {
        "date": "2020-03-31T00:00:00",
        "confirmed": 4119,
        "deaths": 125,
        "recovered": 0
      },
      {
        "date": "2020-04-01T00:00:00",
        "confirmed": 4750,
        "deaths": 154,
        "recovered": 0
      },
      {
        "date": "2020-04-02T00:00:00",
        "confirmed": 5445,
        "deaths": 176,
        "recovered": 0
      },
      {
        "date": "2020-04-03T00:00:00",
        "confirmed": 5968,
        "deaths": 198,
        "recovered": 0
      },
      {
        "date": "2020-04-04T00:00:00",
        "confirmed": 6384,
        "deaths": 208,
        "recovered": 0
      },
      {
        "date": "2020-04-05T00:00:00",
        "confirmed": 6384,
        "deaths": 208,
        "recovered": 0
      }
    ],
    "breakdowns": [
      {
        "location": {
          "long": -82.3508,
          "countryOrRegion": "United States",
          "provinceOrState": "Georgia",
          "county": "Appling",
          "isoCode": "US-GA",
          "lat": 31.7642
        },
        "totalConfirmedCases": 5,
        "newlyConfirmedCases": 0,
        "totalDeaths": 0,
        "newDeaths": 0,
        "totalRecoveredCases": 0,
        "newlyRecoveredCases": 0
      },
      {
        "location": {
          "long": -82.4145,
          "countryOrRegion": "United States",
          "provinceOrState": "Georgia",
          "county": "Bacon",
          "isoCode": "US-GA",
          "lat": 31.5441
        },
        "totalConfirmedCases": 6,
        "newlyConfirmedCases": 0,
        "totalDeaths": 0,
        "newDeaths": 0,
        "totalRecoveredCases": 0,
        "newlyRecoveredCases": 0
      },
      {
        "location": {
          "long": -84.3376,
          "countryOrRegion": "United States",
          "provinceOrState": "Georgia",
          "county": "Baker",
          "isoCode": "US-GA",
          "lat": 31.3172
        },
        "totalConfirmedCases": 5,
        "newlyConfirmedCases": 0,
        "totalDeaths": 1,
        "newDeaths": 0,
        "totalRecoveredCases": 0,
        "newlyRecoveredCases": 0
      },
      {
        "location": {
          "long": -83.244,
          "countryOrRegion": "United States",
          "provinceOrState": "Georgia",
          "county": "Baldwin",
          "isoCode": "US-GA",
          "lat": 33.0523
        },
        "totalConfirmedCases": 11,
        "newlyConfirmedCases": 0,
        "totalDeaths": 1,
        "newDeaths": 0,
        "totalRecoveredCases": 0,
        "newlyRecoveredCases": 0
      },
      {
        "location": {
          "long": -83.6381,
          "countryOrRegion": "United States",
          "provinceOrState": "Georgia",
          "county": "Banks",
          "isoCode": "US-GA",
          "lat": 34.3095
        },
        "totalConfirmedCases": 3,
        "newlyConfirmedCases": 0,
        "totalDeaths": 0,
        "newDeaths": 0,
        "totalRecoveredCases": 0,
        "newlyRecoveredCases": 0
      },
      {
        "location": {
          "long": -83.7218,
          "countryOrRegion": "United States",
          "provinceOrState": "Georgia",
          "county": "Barrow",
          "isoCode": "US-GA",
          "lat": 33.9917
        },
        "totalConfirmedCases": 25,
        "newlyConfirmedCases": 0,
        "totalDeaths": 2,
        "newDeaths": 0,
        "totalRecoveredCases": 0,
        "newlyRecoveredCases": 0
      },
      {
        "location": {
          "long": 84.8151,
          "countryOrRegion": "United States",
          "provinceOrState": "Georgia",
          "county": "Bartow",
          "isoCode": "US-GA",
          "lat": 34.266
        },
        "totalConfirmedCases": 160,
        "newlyConfirmedCases": 0,
        "totalDeaths": 7,
        "newDeaths": 0,
        "totalRecoveredCases": 0,
        "newlyRecoveredCases": 0
      },
      {
        "location": {
          "long": -83.2515,
          "countryOrRegion": "United States",
          "provinceOrState": "Georgia",
          "county": "Ben Hill",
          "isoCode": "US-GA",
          "lat": 31.7135
        },
        "totalConfirmedCases": 4,
        "newlyConfirmedCases": 0,
        "totalDeaths": 0,
        "newDeaths": 0,
        "totalRecoveredCases": 0,
        "newlyRecoveredCases": 0
      },
      {
        "location": {
          "long": -83.196,
          "countryOrRegion": "United States",
          "provinceOrState": "Georgia",
          "county": "Berrien",
          "isoCode": "US-GA",
          "lat": 31.0729
        },
        "totalConfirmedCases": 3,
        "newlyConfirmedCases": 0,
        "totalDeaths": 0,
        "newDeaths": 0,
        "totalRecoveredCases": 0,
        "newlyRecoveredCases": 0
      },
      {
        "location": {
          "long": -83.6974,
          "countryOrRegion": "United States",
          "provinceOrState": "Georgia",
          "county": "Bibb",
          "isoCode": "US-GA",
          "lat": 32.8065
        },
        "totalConfirmedCases": 36,
        "newlyConfirmedCases": 0,
        "totalDeaths": 1,
        "newDeaths": 0,
        "totalRecoveredCases": 0,
        "newlyRecoveredCases": 0
      },
      {
        "location": {
          "long": -83.5003,
          "countryOrRegion": "United States",
          "provinceOrState": "Georgia",
          "county": "Brooks",
          "isoCode": "US-GA",
          "lat": 30.9433
        },
        "totalConfirmedCases": 5,
        "newlyConfirmedCases": 0,
        "totalDeaths": 0,
        "newDeaths": 0,
        "totalRecoveredCases": 0,
        "newlyRecoveredCases": 0
      },
      {
        "location": {
          "long": -81.3126,
          "countryOrRegion": "United States",
          "provinceOrState": "Georgia",
          "county": "Bryan",
          "isoCode": "US-GA",
          "lat": 31.9012
        },
        "totalConfirmedCases": 15,
        "newlyConfirmedCases": 0,
        "totalDeaths": 1,
        "newDeaths": 0,
        "totalRecoveredCases": 0,
        "newlyRecoveredCases": 0
      },
      {
        "location": {
          "long": -81.9297,
          "countryOrRegion": "United States",
          "provinceOrState": "Georgia",
          "county": "Bulloch",
          "isoCode": "US-GA",
          "lat": 32.5383
        },
        "totalConfirmedCases": 5,
        "newlyConfirmedCases": 0,
        "totalDeaths": 0,
        "newDeaths": 0,
        "totalRecoveredCases": 0,
        "newlyRecoveredCases": 0
      },
      {
        "location": {
          "long": -82.0146,
          "countryOrRegion": "United States",
          "provinceOrState": "Georgia",
          "county": "Burke",
          "isoCode": "US-GA",
          "lat": 33.0909
        },
        "totalConfirmedCases": 9,
        "newlyConfirmedCases": 0,
        "totalDeaths": 0,
        "newDeaths": 0,
        "totalRecoveredCases": 0,
        "newlyRecoveredCases": 0
      },
      {
        "location": {
          "long": -83.903,
          "countryOrRegion": "United States",
          "provinceOrState": "Georgia",
          "county": "Butts",
          "isoCode": "US-GA",
          "lat": 33.2524
        },
        "totalConfirmedCases": 10,
        "newlyConfirmedCases": 0,
        "totalDeaths": 0,
        "newDeaths": 0,
        "totalRecoveredCases": 0,
        "newlyRecoveredCases": 0
      },
      {
        "location": {
          "long": -84.5133,
          "countryOrRegion": "United States",
          "provinceOrState": "Georgia",
          "county": "Calhoun",
          "isoCode": "US-GA",
          "lat": 31.4847
        },
        "totalConfirmedCases": 15,
        "newlyConfirmedCases": 0,
        "totalDeaths": 1,
        "newDeaths": 0,
        "totalRecoveredCases": 0,
        "newlyRecoveredCases": 0
      },
      {
        "location": {
          "long": -81.5628,
          "countryOrRegion": "United States",
          "provinceOrState": "Georgia",
          "county": "Camden",
          "isoCode": "US-GA",
          "lat": 30.7985
        },
        "totalConfirmedCases": 6,
        "newlyConfirmedCases": 0,
        "totalDeaths": 0,
        "newDeaths": 0,
        "totalRecoveredCases": 0,
        "newlyRecoveredCases": 0
      },
      {
        "location": {
          "long": -82.0621,
          "countryOrRegion": "United States",
          "provinceOrState": "Georgia",
          "county": "Candler",
          "isoCode": "US-GA",
          "lat": 32.3958
        },
        "totalConfirmedCases": 1,
        "newlyConfirmedCases": 0,
        "totalDeaths": 0,
        "newDeaths": 0,
        "totalRecoveredCases": 0,
        "newlyRecoveredCases": 0
      },
      {
        "location": {
          "long": -84.917,
          "countryOrRegion": "United States",
          "provinceOrState": "Georgia",
          "county": "Carroll",
          "isoCode": "US-GA",
          "lat": 33.7305
        },
        "totalConfirmedCases": 158,
        "newlyConfirmedCases": 0,
        "totalDeaths": 2,
        "newDeaths": 0,
        "totalRecoveredCases": 0,
        "newlyRecoveredCases": 0
      },
      {
        "location": {
          "long": -85.246,
          "countryOrRegion": "United States",
          "provinceOrState": "Georgia",
          "county": "Catoosa",
          "isoCode": "US-GA",
          "lat": 34.9318
        },
        "totalConfirmedCases": 6,
        "newlyConfirmedCases": 0,
        "totalDeaths": 0,
        "newDeaths": 0,
        "totalRecoveredCases": 0,
        "newlyRecoveredCases": 0
      },
      {
        "location": {
          "long": -82.0843,
          "countryOrRegion": "United States",
          "provinceOrState": "Georgia",
          "county": "Charlton",
          "isoCode": "US-GA",
          "lat": 30.7917
        },
        "totalConfirmedCases": 1,
        "newlyConfirmedCases": 0,
        "totalDeaths": 0,
        "newDeaths": 0,
        "totalRecoveredCases": 0,
        "newlyRecoveredCases": 0
      },
      {
        "location": {
          "long": -81.2568,
          "countryOrRegion": "United States",
          "provinceOrState": "Georgia",
          "county": "Chatham",
          "isoCode": "US-GA",
          "lat": 32.1043
        },
        "totalConfirmedCases": 81,
        "newlyConfirmedCases": 0,
        "totalDeaths": 3,
        "newDeaths": 0,
        "totalRecoveredCases": 0,
        "newlyRecoveredCases": 0
      },
      {
        "location": {
          "long": -84.787,
          "countryOrRegion": "United States",
          "provinceOrState": "Georgia",
          "county": "Chattahoochee",
          "isoCode": "US-GA",
          "lat": 32.347
        },
        "totalConfirmedCases": 2,
        "newlyConfirmedCases": 0,
        "totalDeaths": 0,
        "newDeaths": 0,
        "totalRecoveredCases": 0,
        "newlyRecoveredCases": 0
      },
      {
        "location": {
          "long": -85.4776,
          "countryOrRegion": "United States",
          "provinceOrState": "Georgia",
          "county": "Chattooga",
          "isoCode": "US-GA",
          "lat": 34.4835
        },
        "totalConfirmedCases": 3,
        "newlyConfirmedCases": 0,
        "totalDeaths": 0,
        "newDeaths": 0,
        "totalRecoveredCases": 0,
        "newlyRecoveredCases": 0
      },
      {
        "location": {
          "long": -84.4803,
          "countryOrRegion": "United States",
          "provinceOrState": "Georgia",
          "county": "Cherokee",
          "isoCode": "US-GA",
          "lat": 34.2515
        },
        "totalConfirmedCases": 120,
        "newlyConfirmedCases": 0,
        "totalDeaths": 5,
        "newDeaths": 0,
        "totalRecoveredCases": 0,
        "newlyRecoveredCases": 0
      },
      {
        "location": {
          "long": -83.2815,
          "countryOrRegion": "United States",
          "provinceOrState": "Georgia",
          "county": "Clarke",
          "isoCode": "US-GA",
          "lat": 33.9666
        },
        "totalConfirmedCases": 62,
        "newlyConfirmedCases": 0,
        "totalDeaths": 8,
        "newDeaths": 0,
        "totalRecoveredCases": 0,
        "newlyRecoveredCases": 0
      },
      {
        "location": {
          "long": -84.36,
          "countryOrRegion": "United States",
          "provinceOrState": "Georgia",
          "county": "Clayton",
          "isoCode": "US-GA",
          "lat": 33.4773
        },
        "totalConfirmedCases": 235,
        "newlyConfirmedCases": 0,
        "totalDeaths": 9,
        "newDeaths": 0,
        "totalRecoveredCases": 0,
        "newlyRecoveredCases": 0
      },
      {
        "location": {
          "long": -82.5721,
          "countryOrRegion": "United States",
          "provinceOrState": "Georgia",
          "county": "Clinch",
          "isoCode": "US-GA",
          "lat": 30.6881
        },
        "totalConfirmedCases": 2,
        "newlyConfirmedCases": 0,
        "totalDeaths": 0,
        "newDeaths": 0,
        "totalRecoveredCases": 0,
        "newlyRecoveredCases": 0
      },
      {
        "location": {
          "long": -84.5641,
          "countryOrRegion": "United States",
          "provinceOrState": "Georgia",
          "county": "Cobb",
          "isoCode": "US-GA",
          "lat": 33.8999
        },
        "totalConfirmedCases": 453,
        "newlyConfirmedCases": 0,
        "totalDeaths": 23,
        "newDeaths": 0,
        "totalRecoveredCases": 0,
        "newlyRecoveredCases": 0
      },
      {
        "location": {
          "long": -82.8877,
          "countryOrRegion": "United States",
          "provinceOrState": "Georgia",
          "county": "Coffee",
          "isoCode": "US-GA",
          "lat": 31.6248
        },
        "totalConfirmedCases": 15,
        "newlyConfirmedCases": 0,
        "totalDeaths": 0,
        "newDeaths": 0,
        "totalRecoveredCases": 0,
        "newlyRecoveredCases": 0
      },
      {
        "location": {
          "long": -83.6236,
          "countryOrRegion": "United States",
          "provinceOrState": "Georgia",
          "county": "Colquitt",
          "isoCode": "US-GA",
          "lat": 31.0683
        },
        "totalConfirmedCases": 49,
        "newlyConfirmedCases": 0,
        "totalDeaths": 3,
        "newDeaths": 0,
        "totalRecoveredCases": 0,
        "newlyRecoveredCases": 0
      },
      {
        "location": {
          "long": -82.3127,
          "countryOrRegion": "United States",
          "provinceOrState": "Georgia",
          "county": "Columbia",
          "isoCode": "US-GA",
          "lat": 33.4262
        },
        "totalConfirmedCases": 36,
        "newlyConfirmedCases": 0,
        "totalDeaths": 0,
        "newDeaths": 0,
        "totalRecoveredCases": 0,
        "newlyRecoveredCases": 0
      },
      {
        "location": {
          "long": -83.3906,
          "countryOrRegion": "United States",
          "provinceOrState": "Georgia",
          "county": "Cook",
          "isoCode": "US-GA",
          "lat": 31.0466
        },
        "totalConfirmedCases": 1,
        "newlyConfirmedCases": 0,
        "totalDeaths": 0,
        "newDeaths": 0,
        "totalRecoveredCases": 0,
        "newlyRecoveredCases": 0
      },
      {
        "location": {
          "long": -84.6371,
          "countryOrRegion": "United States",
          "provinceOrState": "Georgia",
          "county": "Coweta",
          "isoCode": "US-GA",
          "lat": 33.326
        },
        "totalConfirmedCases": 64,
        "newlyConfirmedCases": 0,
        "totalDeaths": 2,
        "newDeaths": 0,
        "totalRecoveredCases": 0,
        "newlyRecoveredCases": 0
      },
      {
        "location": {
          "long": -83.7695,
          "countryOrRegion": "United States",
          "provinceOrState": "Georgia",
          "county": "Crisp",
          "isoCode": "US-GA",
          "lat": 31.9563
        },
        "totalConfirmedCases": 28,
        "newlyConfirmedCases": 0,
        "totalDeaths": 0,
        "newDeaths": 0,
        "totalRecoveredCases": 0,
        "newlyRecoveredCases": 0
      },
      {
        "location": {
          "long": -84.1252,
          "countryOrRegion": "United States",
          "provinceOrState": "Georgia",
          "county": "Dawson",
          "isoCode": "US-GA",
          "lat": 34.4362
        },
        "totalConfirmedCases": 16,
        "newlyConfirmedCases": 0,
        "totalDeaths": 0,
        "newDeaths": 0,
        "totalRecoveredCases": 0,
        "newlyRecoveredCases": 0
      },
      {
        "location": {
          "long": -84.4312,
          "countryOrRegion": "United States",
          "provinceOrState": "Georgia",
          "county": "Decatur",
          "isoCode": "US-GA",
          "lat": 30.8756
        },
        "totalConfirmedCases": 16,
        "newlyConfirmedCases": 0,
        "totalDeaths": 0,
        "newDeaths": 0,
        "totalRecoveredCases": 0,
        "newlyRecoveredCases": 0
      },
      {
        "location": {
          "long": -84.2279,
          "countryOrRegion": "United States",
          "provinceOrState": "Georgia",
          "county": "DeKalb",
          "isoCode": "US-GA",
          "lat": 33.7956
        },
        "totalConfirmedCases": 539,
        "newlyConfirmedCases": 0,
        "totalDeaths": 9,
        "newDeaths": 0,
        "totalRecoveredCases": 0,
        "newlyRecoveredCases": 0
      },
      {
        "location": {
          "long": -83.1712,
          "countryOrRegion": "United States",
          "provinceOrState": "Georgia",
          "county": "Dodge",
          "isoCode": "US-GA",
          "lat": 32.1973
        },
        "totalConfirmedCases": 5,
        "newlyConfirmedCases": 0,
        "totalDeaths": 0,
        "newDeaths": 0,
        "totalRecoveredCases": 0,
        "newlyRecoveredCases": 0
      },
      {
        "location": {
          "long": -83.7596,
          "countryOrRegion": "United States",
          "provinceOrState": "Georgia",
          "county": "Dooly",
          "isoCode": "US-GA",
          "lat": 32.1956
        },
        "totalConfirmedCases": 15,
        "newlyConfirmedCases": 0,
        "totalDeaths": 1,
        "newDeaths": 0,
        "totalRecoveredCases": 0,
        "newlyRecoveredCases": 0
      },
      {
        "location": {
          "long": -84.101,
          "countryOrRegion": "United States",
          "provinceOrState": "Georgia",
          "county": "Dougherty",
          "isoCode": "US-GA",
          "lat": 31.4756
        },
        "totalConfirmedCases": 685,
        "newlyConfirmedCases": 0,
        "totalDeaths": 30,
        "newDeaths": 0,
        "totalRecoveredCases": 0,
        "newlyRecoveredCases": 0
      },
      {
        "location": {
          "long": -84.6486,
          "countryOrRegion": "United States",
          "provinceOrState": "Georgia",
          "county": "Douglas",
          "isoCode": "US-GA",
          "lat": 33.7811
        },
        "totalConfirmedCases": 84,
        "newlyConfirmedCases": 0,
        "totalDeaths": 4,
        "newDeaths": 0,
        "totalRecoveredCases": 0,
        "newlyRecoveredCases": 0
      },
      {
        "location": {
          "long": -84.717,
          "countryOrRegion": "United States",
          "provinceOrState": "Georgia",
          "county": "Early",
          "isoCode": "US-GA",
          "lat": 31.2988
        },
        "totalConfirmedCases": 64,
        "newlyConfirmedCases": 0,
        "totalDeaths": 1,
        "newDeaths": 0,
        "totalRecoveredCases": 0,
        "newlyRecoveredCases": 0
      },
      {
        "location": {
          "long": -81.3078,
          "countryOrRegion": "United States",
          "provinceOrState": "Georgia",
          "county": "Effingham",
          "isoCode": "US-GA",
          "lat": 32.3641
        },
        "totalConfirmedCases": 9,
        "newlyConfirmedCases": 0,
        "totalDeaths": 0,
        "newDeaths": 0,
        "totalRecoveredCases": 0,
        "newlyRecoveredCases": 0
      },
      {
        "location": {
          "long": -84.2442,
          "countryOrRegion": "United States",
          "provinceOrState": "Georgia",
          "county": "Fannin",
          "isoCode": "US-GA",
          "lat": 34.8749
        },
        "totalConfirmedCases": 8,
        "newlyConfirmedCases": 0,
        "totalDeaths": 0,
        "newDeaths": 0,
        "totalRecoveredCases": 0,
        "newlyRecoveredCases": 0
      },
      {
        "location": {
          "long": -84.4803,
          "countryOrRegion": "United States",
          "provinceOrState": "Georgia",
          "county": "Fayette",
          "isoCode": "US-GA",
          "lat": 33.4502
        },
        "totalConfirmedCases": 66,
        "newlyConfirmedCases": 0,
        "totalDeaths": 4,
        "newDeaths": 0,
        "totalRecoveredCases": 0,
        "newlyRecoveredCases": 0
      },
      {
        "location": {
          "long": -82.7779,
          "countryOrRegion": "United States",
          "provinceOrState": "Georgia",
          "county": "Floyd",
          "isoCode": "US-GA",
          "lat": 37.5455
        },
        "totalConfirmedCases": 80,
        "newlyConfirmedCases": 0,
        "totalDeaths": 3,
        "newDeaths": 0,
        "totalRecoveredCases": 0,
        "newlyRecoveredCases": 0
      },
      {
        "location": {
          "long": 85.2308,
          "countryOrRegion": "United States",
          "provinceOrState": "Georgia",
          "county": "Floyed",
          "isoCode": "US-GA",
          "lat": 34.2829
        },
        "totalConfirmedCases": 1,
        "newlyConfirmedCases": 0,
        "totalDeaths": 0,
        "newDeaths": 0,
        "totalRecoveredCases": 0,
        "newlyRecoveredCases": 0
      },
      {
        "location": {
          "long": -84.1337,
          "countryOrRegion": "United States",
          "provinceOrState": "Georgia",
          "county": "Forsyth",
          "isoCode": "US-GA",
          "lat": 34.2064
        },
        "totalConfirmedCases": 71,
        "newlyConfirmedCases": 0,
        "totalDeaths": 1,
        "newDeaths": 0,
        "totalRecoveredCases": 0,
        "newlyRecoveredCases": 0
      },
      {
        "location": {
          "long": -83.0975,
          "countryOrRegion": "United States",
          "provinceOrState": "Georgia",
          "county": "Franklin",
          "isoCode": "US-GA",
          "lat": 34.4953
        },
        "totalConfirmedCases": 5,
        "newlyConfirmedCases": 0,
        "totalDeaths": 0,
        "newDeaths": 0,
        "totalRecoveredCases": 0,
        "newlyRecoveredCases": 0
      },
      {
        "location": {
          "long": -84.3963,
          "countryOrRegion": "United States",
          "provinceOrState": "Georgia",
          "county": "Fulton",
          "isoCode": "US-GA",
          "lat": 33.8034
        },
        "totalConfirmedCases": 959,
        "newlyConfirmedCases": 0,
        "totalDeaths": 26,
        "newDeaths": 0,
        "totalRecoveredCases": 0,
        "newlyRecoveredCases": 0
      },
      {
        "location": {
          "long": -84.484,
          "countryOrRegion": "United States",
          "provinceOrState": "Georgia",
          "county": "Gilmer",
          "isoCode": "US-GA",
          "lat": 34.6911
        },
        "totalConfirmedCases": 1,
        "newlyConfirmedCases": 0,
        "totalDeaths": 0,
        "newDeaths": 0,
        "totalRecoveredCases": 0,
        "newlyRecoveredCases": 0
      },
      {
        "location": {
          "long": -81.474,
          "countryOrRegion": "United States",
          "provinceOrState": "Georgia",
          "county": "Glynn",
          "isoCode": "US-GA",
          "lat": 31.145
        },
        "totalConfirmedCases": 28,
        "newlyConfirmedCases": 0,
        "totalDeaths": 0,
        "newDeaths": 0,
        "totalRecoveredCases": 0,
        "newlyRecoveredCases": 0
      },
      {
        "location": {
          "long": -84.6999,
          "countryOrRegion": "United States",
          "provinceOrState": "Georgia",
          "county": "Gordon",
          "isoCode": "US-GA",
          "lat": 34.4379
        },
        "totalConfirmedCases": 23,
        "newlyConfirmedCases": 0,
        "totalDeaths": 2,
        "newDeaths": 0,
        "totalRecoveredCases": 0,
        "newlyRecoveredCases": 0
      },
      {
        "location": {
          "long": -83.0756,
          "countryOrRegion": "United States",
          "provinceOrState": "Georgia",
          "county": "Greene",
          "isoCode": "US-GA",
          "lat": 33.6177
        },
        "totalConfirmedCases": 12,
        "newlyConfirmedCases": 0,
        "totalDeaths": 0,
        "newDeaths": 0,
        "totalRecoveredCases": 0,
        "newlyRecoveredCases": 0
      },
      {
        "location": {
          "long": -84.0167,
          "countryOrRegion": "United States",
          "provinceOrState": "Georgia",
          "county": "Gwinnett",
          "isoCode": "US-GA",
          "lat": 33.9191
        },
        "totalConfirmedCases": 400,
        "newlyConfirmedCases": 0,
        "totalDeaths": 8,
        "newDeaths": 0,
        "totalRecoveredCases": 0,
        "newlyRecoveredCases": 0
      },
      {
        "location": {
          "long": -83.5424,
          "countryOrRegion": "United States",
          "provinceOrState": "Georgia",
          "county": "Habersham",
          "isoCode": "US-GA",
          "lat": 34.5648
        },
        "totalConfirmedCases": 2,
        "newlyConfirmedCases": 0,
        "totalDeaths": 0,
        "newDeaths": 0,
        "totalRecoveredCases": 0,
        "newlyRecoveredCases": 0
      },
      {
        "location": {
          "long": -83.6655,
          "countryOrRegion": "United States",
          "provinceOrState": "Georgia",
          "county": "Hall",
          "isoCode": "US-GA",
          "lat": 34.3956
        },
        "totalConfirmedCases": 117,
        "newlyConfirmedCases": 0,
        "totalDeaths": 0,
        "newDeaths": 0,
        "totalRecoveredCases": 0,
        "newlyRecoveredCases": 0
      },
      {
        "location": {
          "long": -85.2859,
          "countryOrRegion": "United States",
          "provinceOrState": "Georgia",
          "county": "Haralson",
          "isoCode": "US-GA",
          "lat": 33.7335
        },
        "totalConfirmedCases": 10,
        "newlyConfirmedCases": 0,
        "totalDeaths": 0,
        "newDeaths": 0,
        "totalRecoveredCases": 0,
        "newlyRecoveredCases": 0
      },
      {
        "location": {
          "long": -84.8752,
          "countryOrRegion": "United States",
          "provinceOrState": "Georgia",
          "county": "Harris",
          "isoCode": "US-GA",
          "lat": 32.7647
        },
        "totalConfirmedCases": 6,
        "newlyConfirmedCases": 0,
        "totalDeaths": 0,
        "newDeaths": 0,
        "totalRecoveredCases": 0,
        "newlyRecoveredCases": 0
      },
      {
        "location": {
          "long": -83.1097,
          "countryOrRegion": "United States",
          "provinceOrState": "Georgia",
          "county": "Hart",
          "isoCode": "US-GA",
          "lat": 34.2859
        },
        "totalConfirmedCases": 3,
        "newlyConfirmedCases": 0,
        "totalDeaths": 0,
        "newDeaths": 0,
        "totalRecoveredCases": 0,
        "newlyRecoveredCases": 0
      },
      {
        "location": {
          "long": -85.1037,
          "countryOrRegion": "United States",
          "provinceOrState": "Georgia",
          "county": "Heard",
          "isoCode": "US-GA",
          "lat": 33.3689
        },
        "totalConfirmedCases": 2,
        "newlyConfirmedCases": 0,
        "totalDeaths": 1,
        "newDeaths": 0,
        "totalRecoveredCases": 0,
        "newlyRecoveredCases": 0
      },
      {
        "location": {
          "long": -84.1508,
          "countryOrRegion": "United States",
          "provinceOrState": "Georgia",
          "county": "Henry",
          "isoCode": "US-GA",
          "lat": 33.4399
        },
        "totalConfirmedCases": 167,
        "newlyConfirmedCases": 0,
        "totalDeaths": 3,
        "newDeaths": 0,
        "totalRecoveredCases": 0,
        "newlyRecoveredCases": 0
      },
      {
        "location": {
          "long": -83.6854,
          "countryOrRegion": "United States",
          "provinceOrState": "Georgia",
          "county": "Houston",
          "isoCode": "US-GA",
          "lat": 32.6341
        },
        "totalConfirmedCases": 59,
        "newlyConfirmedCases": 0,
        "totalDeaths": 6,
        "newDeaths": 0,
        "totalRecoveredCases": 0,
        "newlyRecoveredCases": 0
      },
      {
        "location": {
          "long": -83.2499,
          "countryOrRegion": "United States",
          "provinceOrState": "Georgia",
          "county": "Irwin",
          "isoCode": "US-GA",
          "lat": 31.5987
        },
        "totalConfirmedCases": 6,
        "newlyConfirmedCases": 0,
        "totalDeaths": 0,
        "newDeaths": 0,
        "totalRecoveredCases": 0,
        "newlyRecoveredCases": 0
      },
      {
        "location": {
          "long": -83.7617,
          "countryOrRegion": "United States",
          "provinceOrState": "Georgia",
          "county": "Jackson",
          "isoCode": "US-GA",
          "lat": 34.0933
        },
        "totalConfirmedCases": 15,
        "newlyConfirmedCases": 0,
        "totalDeaths": 0,
        "newDeaths": 0,
        "totalRecoveredCases": 0,
        "newlyRecoveredCases": 0
      },
      {
        "location": {
          "long": -83.5884,
          "countryOrRegion": "United States",
          "provinceOrState": "Georgia",
          "county": "Jasper",
          "isoCode": "US-GA",
          "lat": 33.4007
        },
        "totalConfirmedCases": 4,
        "newlyConfirmedCases": 0,
        "totalDeaths": 0,
        "newDeaths": 0,
        "totalRecoveredCases": 0,
        "newlyRecoveredCases": 0
      },
      {
        "location": {
          "long": -81.949,
          "countryOrRegion": "United States",
          "provinceOrState": "Georgia",
          "county": "Jenkins",
          "isoCode": "US-GA",
          "lat": 32.9149
        },
        "totalConfirmedCases": 2,
        "newlyConfirmedCases": 0,
        "totalDeaths": 0,
        "newDeaths": 0,
        "totalRecoveredCases": 0,
        "newlyRecoveredCases": 0
      },
      {
        "location": {
          "long": -83.5374,
          "countryOrRegion": "United States",
          "provinceOrState": "Georgia",
          "county": "Jones",
          "isoCode": "US-GA",
          "lat": 33.002
        },
        "totalConfirmedCases": 6,
        "newlyConfirmedCases": 0,
        "totalDeaths": 0,
        "newDeaths": 0,
        "totalRecoveredCases": 0,
        "newlyRecoveredCases": 0
      },
      {
        "location": {
          "long": -84.1527,
          "countryOrRegion": "United States",
          "provinceOrState": "Georgia",
          "county": "Lamar",
          "isoCode": "US-GA",
          "lat": 33.0508
        },
        "totalConfirmedCases": 7,
        "newlyConfirmedCases": 0,
        "totalDeaths": 0,
        "newDeaths": 0,
        "totalRecoveredCases": 0,
        "newlyRecoveredCases": 0
      },
      {
        "location": {
          "long": -82.9917,
          "countryOrRegion": "United States",
          "provinceOrState": "Georgia",
          "county": "Laurens",
          "isoCode": "US-GA",
          "lat": 32.3835
        },
        "totalConfirmedCases": 15,
        "newlyConfirmedCases": 0,
        "totalDeaths": 0,
        "newDeaths": 0,
        "totalRecoveredCases": 0,
        "newlyRecoveredCases": 0
      },
      {
        "location": {
          "long": 84.1435,
          "countryOrRegion": "United States",
          "provinceOrState": "Georgia",
          "county": "Lee",
          "isoCode": "US-GA",
          "lat": 31.8128
        },
        "totalConfirmedCases": 134,
        "newlyConfirmedCases": 0,
        "totalDeaths": 8,
        "newDeaths": 0,
        "totalRecoveredCases": 0,
        "newlyRecoveredCases": 0
      },
      {
        "location": {
          "long": -81.6216,
          "countryOrRegion": "United States",
          "provinceOrState": "Georgia",
          "county": "Liberty",
          "isoCode": "US-GA",
          "lat": 31.7715
        },
        "totalConfirmedCases": 10,
        "newlyConfirmedCases": 0,
        "totalDeaths": 0,
        "newDeaths": 0,
        "totalRecoveredCases": 0,
        "newlyRecoveredCases": 0
      },
      {
        "location": {
          "long": -82.4776,
          "countryOrRegion": "United States",
          "provinceOrState": "Georgia",
          "county": "Lincoln",
          "isoCode": "US-GA",
          "lat": 33.7931
        },
        "totalConfirmedCases": 5,
        "newlyConfirmedCases": 0,
        "totalDeaths": 0,
        "newDeaths": 0,
        "totalRecoveredCases": 0,
        "newlyRecoveredCases": 0
      },
      {
        "location": {
          "long": -81.7457,
          "countryOrRegion": "United States",
          "provinceOrState": "Georgia",
          "county": "Long",
          "isoCode": "US-GA",
          "lat": 31.7096
        },
        "totalConfirmedCases": 1,
        "newlyConfirmedCases": 0,
        "totalDeaths": 0,
        "newDeaths": 0,
        "totalRecoveredCases": 0,
        "newlyRecoveredCases": 0
      },
      {
        "location": {
          "long": 83.2934,
          "countryOrRegion": "United States",
          "provinceOrState": "Georgia",
          "county": "Lowndes",
          "isoCode": "US-GA",
          "lat": 30.86
        },
        "totalConfirmedCases": 37,
        "newlyConfirmedCases": 0,
        "totalDeaths": 1,
        "newDeaths": 0,
        "totalRecoveredCases": 0,
        "newlyRecoveredCases": 0
      },
      {
        "location": {
          "long": -83.9796,
          "countryOrRegion": "United States",
          "provinceOrState": "Georgia",
          "county": "Lumpkin",
          "isoCode": "US-GA",
          "lat": 34.5302
        },
        "totalConfirmedCases": 9,
        "newlyConfirmedCases": 0,
        "totalDeaths": 0,
        "newDeaths": 0,
        "totalRecoveredCases": 0,
        "newlyRecoveredCases": 0
      },
      {
        "location": {
          "long": -84.0246,
          "countryOrRegion": "United States",
          "provinceOrState": "Georgia",
          "county": "Macon",
          "isoCode": "US-GA",
          "lat": 32.2997
        },
        "totalConfirmedCases": 4,
        "newlyConfirmedCases": 0,
        "totalDeaths": 0,
        "newDeaths": 0,
        "totalRecoveredCases": 0,
        "newlyRecoveredCases": 0
      },
      {
        "location": {
          "long": -83.293,
          "countryOrRegion": "United States",
          "provinceOrState": "Georgia",
          "county": "Madison",
          "isoCode": "US-GA",
          "lat": 34.1727
        },
        "totalConfirmedCases": 7,
        "newlyConfirmedCases": 0,
        "totalDeaths": 1,
        "newDeaths": 0,
        "totalRecoveredCases": 0,
        "newlyRecoveredCases": 0
      },
      {
        "location": {
          "long": -84.6781,
          "countryOrRegion": "United States",
          "provinceOrState": "Georgia",
          "county": "Meriwether",
          "isoCode": "US-GA",
          "lat": 32.887
        },
        "totalConfirmedCases": 11,
        "newlyConfirmedCases": 0,
        "totalDeaths": 0,
        "newDeaths": 0,
        "totalRecoveredCases": 0,
        "newlyRecoveredCases": 0
      },
      {
        "location": {
          "long": -84.6848,
          "countryOrRegion": "United States",
          "provinceOrState": "Georgia",
          "county": "Miller",
          "isoCode": "US-GA",
          "lat": 31.1017
        },
        "totalConfirmedCases": 10,
        "newlyConfirmedCases": 0,
        "totalDeaths": 0,
        "newDeaths": 0,
        "totalRecoveredCases": 0,
        "newlyRecoveredCases": 0
      },
      {
        "location": {
          "long": -84.1592,
          "countryOrRegion": "United States",
          "provinceOrState": "Georgia",
          "county": "Mitchell",
          "isoCode": "US-GA",
          "lat": 31.3804
        },
        "totalConfirmedCases": 53,
        "newlyConfirmedCases": 0,
        "totalDeaths": 1,
        "newDeaths": 0,
        "totalRecoveredCases": 0,
        "newlyRecoveredCases": 0
      },
      {
        "location": {
          "long": -83.938,
          "countryOrRegion": "United States",
          "provinceOrState": "Georgia",
          "county": "Monroe",
          "isoCode": "US-GA",
          "lat": 33.0347
        },
        "totalConfirmedCases": 7,
        "newlyConfirmedCases": 0,
        "totalDeaths": 1,
        "newDeaths": 0,
        "totalRecoveredCases": 0,
        "newlyRecoveredCases": 0
      },
      {
        "location": {
          "long": -83.5149,
          "countryOrRegion": "United States",
          "provinceOrState": "Georgia",
          "county": "Morgan",
          "isoCode": "US-GA",
          "lat": 33.7378
        },
        "totalConfirmedCases": 2,
        "newlyConfirmedCases": 0,
        "totalDeaths": 0,
        "newDeaths": 0,
        "totalRecoveredCases": 0,
        "newlyRecoveredCases": 0
      },
      {
        "location": {
          "long": -84.7657,
          "countryOrRegion": "United States",
          "provinceOrState": "Georgia",
          "county": "Murray",
          "isoCode": "US-GA",
          "lat": 34.8282
        },
        "totalConfirmedCases": 9,
        "newlyConfirmedCases": 0,
        "totalDeaths": 0,
        "newDeaths": 0,
        "totalRecoveredCases": 0,
        "newlyRecoveredCases": 0
      },
      {
        "location": {
          "long": -84.8771,
          "countryOrRegion": "United States",
          "provinceOrState": "Georgia",
          "county": "Muscogee",
          "isoCode": "US-GA",
          "lat": 32.51
        },
        "totalConfirmedCases": 35,
        "newlyConfirmedCases": 0,
        "totalDeaths": 0,
        "newDeaths": 0,
        "totalRecoveredCases": 0,
        "newlyRecoveredCases": 0
      },
      {
        "location": {
          "long": -83.894,
          "countryOrRegion": "United States",
          "provinceOrState": "Georgia",
          "county": "Newton",
          "isoCode": "US-GA",
          "lat": 33.5739
        },
        "totalConfirmedCases": 52,
        "newlyConfirmedCases": 0,
        "totalDeaths": 1,
        "newDeaths": 0,
        "totalRecoveredCases": 0,
        "newlyRecoveredCases": 0
      },
      {
        "location": {
          "long": -83.5334,
          "countryOrRegion": "United States",
          "provinceOrState": "Georgia",
          "county": "Oconee",
          "isoCode": "US-GA",
          "lat": 33.9474
        },
        "totalConfirmedCases": 24,
        "newlyConfirmedCases": 0,
        "totalDeaths": 0,
        "newDeaths": 0,
        "totalRecoveredCases": 0,
        "newlyRecoveredCases": 0
      },
      {
        "location": {
          "long": -84.771,
          "countryOrRegion": "United States",
          "provinceOrState": "Georgia",
          "county": "Paulding",
          "isoCode": "US-GA",
          "lat": 33.8771
        },
        "totalConfirmedCases": 50,
        "newlyConfirmedCases": 0,
        "totalDeaths": 0,
        "newDeaths": 0,
        "totalRecoveredCases": 0,
        "newlyRecoveredCases": 0
      },
      {
        "location": {
          "long": -83.8817,
          "countryOrRegion": "United States",
          "provinceOrState": "Georgia",
          "county": "Peach",
          "isoCode": "US-GA",
          "lat": 32.5522
        },
        "totalConfirmedCases": 10,
        "newlyConfirmedCases": 0,
        "totalDeaths": 1,
        "newDeaths": 0,
        "totalRecoveredCases": 0,
        "newlyRecoveredCases": 0
      },
      {
        "location": {
          "long": -84.4939,
          "countryOrRegion": "United States",
          "provinceOrState": "Georgia",
          "county": "Pickens",
          "isoCode": "US-GA",
          "lat": 34.5279
        },
        "totalConfirmedCases": 9,
        "newlyConfirmedCases": 0,
        "totalDeaths": 1,
        "newDeaths": 0,
        "totalRecoveredCases": 0,
        "newlyRecoveredCases": 0
      },
      {
        "location": {
          "long": -82.1132,
          "countryOrRegion": "United States",
          "provinceOrState": "Georgia",
          "county": "Pierce",
          "isoCode": "US-GA",
          "lat": 31.4088
        },
        "totalConfirmedCases": 16,
        "newlyConfirmedCases": 0,
        "totalDeaths": 0,
        "newDeaths": 0,
        "totalRecoveredCases": 0,
        "newlyRecoveredCases": 0
      },
      {
        "location": {
          "long": -84.4385,
          "countryOrRegion": "United States",
          "provinceOrState": "Georgia",
          "county": "Pike",
          "isoCode": "US-GA",
          "lat": 33.0918
        },
        "totalConfirmedCases": 5,
        "newlyConfirmedCases": 0,
        "totalDeaths": 0,
        "newDeaths": 0,
        "totalRecoveredCases": 0,
        "newlyRecoveredCases": 0
      },
      {
        "location": {
          "long": -85.1479,
          "countryOrRegion": "United States",
          "provinceOrState": "Georgia",
          "county": "Polk",
          "isoCode": "US-GA",
          "lat": 34.0132
        },
        "totalConfirmedCases": 18,
        "newlyConfirmedCases": 0,
        "totalDeaths": 0,
        "newDeaths": 0,
        "totalRecoveredCases": 0,
        "newlyRecoveredCases": 0
      },
      {
        "location": {
          "long": -83.4814,
          "countryOrRegion": "United States",
          "provinceOrState": "Georgia",
          "county": "Pulaski",
          "isoCode": "US-GA",
          "lat": 32.2964
        },
        "totalConfirmedCases": 7,
        "newlyConfirmedCases": 0,
        "totalDeaths": 0,
        "newDeaths": 0,
        "totalRecoveredCases": 0,
        "newlyRecoveredCases": 0
      },
      {
        "location": {
          "long": -84.8903,
          "countryOrRegion": "United States",
          "provinceOrState": "Georgia",
          "county": "Randolph",
          "isoCode": "US-GA",
          "lat": 31.6717
        },
        "totalConfirmedCases": 18,
        "newlyConfirmedCases": 0,
        "totalDeaths": 0,
        "newDeaths": 0,
        "totalRecoveredCases": 0,
        "newlyRecoveredCases": 0
      },
      {
        "location": {
          "long": -82.0994,
          "countryOrRegion": "United States",
          "provinceOrState": "Georgia",
          "county": "Richmond",
          "isoCode": "US-GA",
          "lat": 33.2906
        },
        "totalConfirmedCases": 51,
        "newlyConfirmedCases": 0,
        "totalDeaths": 1,
        "newDeaths": 0,
        "totalRecoveredCases": 0,
        "newlyRecoveredCases": 0
      },
      {
        "location": {
          "long": -83.9967,
          "countryOrRegion": "United States",
          "provinceOrState": "Georgia",
          "county": "Rockdale",
          "isoCode": "US-GA",
          "lat": 33.6645
        },
        "totalConfirmedCases": 75,
        "newlyConfirmedCases": 0,
        "totalDeaths": 2,
        "newDeaths": 0,
        "totalRecoveredCases": 0,
        "newlyRecoveredCases": 0
      },
      {
        "location": {
          "long": -84.3089,
          "countryOrRegion": "United States",
          "provinceOrState": "Georgia",
          "county": "Schley",
          "isoCode": "US-GA",
          "lat": 32.238
        },
        "totalConfirmedCases": 6,
        "newlyConfirmedCases": 0,
        "totalDeaths": 0,
        "newDeaths": 0,
        "totalRecoveredCases": 0,
        "newlyRecoveredCases": 0
      },
      {
        "location": {
          "long": -84.8792,
          "countryOrRegion": "United States",
          "provinceOrState": "Georgia",
          "county": "Seminole",
          "isoCode": "US-GA",
          "lat": 31.0404
        },
        "totalConfirmedCases": 8,
        "newlyConfirmedCases": 0,
        "totalDeaths": 0,
        "newDeaths": 0,
        "totalRecoveredCases": 0,
        "newlyRecoveredCases": 0
      },
      {
        "location": {
          "long": -84.2747,
          "countryOrRegion": "United States",
          "provinceOrState": "Georgia",
          "county": "Spalding",
          "isoCode": "US-GA",
          "lat": 33.2418
        },
        "totalConfirmedCases": 26,
        "newlyConfirmedCases": 0,
        "totalDeaths": 2,
        "newDeaths": 0,
        "totalRecoveredCases": 0,
        "newlyRecoveredCases": 0
      },
      {
        "location": {
          "long": -83.1967,
          "countryOrRegion": "United States",
          "provinceOrState": "Georgia",
          "county": "Stephens",
          "isoCode": "US-GA",
          "lat": 34.5027
        },
        "totalConfirmedCases": 6,
        "newlyConfirmedCases": 0,
        "totalDeaths": 0,
        "newDeaths": 0,
        "totalRecoveredCases": 0,
        "newlyRecoveredCases": 0
      },
      {
        "location": {
          "long": -84.2249,
          "countryOrRegion": "United States",
          "provinceOrState": "Georgia",
          "county": "Sumter",
          "isoCode": "US-GA",
          "lat": 32.0736
        },
        "totalConfirmedCases": 83,
        "newlyConfirmedCases": 0,
        "totalDeaths": 4,
        "newDeaths": 0,
        "totalRecoveredCases": 0,
        "newlyRecoveredCases": 0
      },
      {
        "location": {
          "long": -82.1387,
          "countryOrRegion": "United States",
          "provinceOrState": "Georgia",
          "county": "Tattnall",
          "isoCode": "US-GA",
          "lat": 32.2806
        },
        "totalConfirmedCases": 3,
        "newlyConfirmedCases": 0,
        "totalDeaths": 0,
        "newDeaths": 0,
        "totalRecoveredCases": 0,
        "newlyRecoveredCases": 0
      },
      {
        "location": {
          "long": -84.3786,
          "countryOrRegion": "United States",
          "provinceOrState": "Georgia",
          "county": "Taylor",
          "isoCode": "US-GA",
          "lat": 32.5982
        },
        "totalConfirmedCases": 2,
        "newlyConfirmedCases": 0,
        "totalDeaths": 0,
        "newDeaths": 0,
        "totalRecoveredCases": 0,
        "newlyRecoveredCases": 0
      },
      {
        "location": {
          "long": -82.8968,
          "countryOrRegion": "United States",
          "provinceOrState": "Georgia",
          "county": "Telfair",
          "isoCode": "US-GA",
          "lat": 32.0635
        },
        "totalConfirmedCases": 4,
        "newlyConfirmedCases": 0,
        "totalDeaths": 0,
        "newDeaths": 0,
        "totalRecoveredCases": 0,
        "newlyRecoveredCases": 0
      },
      {
        "location": {
          "long": -84.3477,
          "countryOrRegion": "United States",
          "provinceOrState": "Georgia",
          "county": "Terrell",
          "isoCode": "US-GA",
          "lat": 31.7199
        },
        "totalConfirmedCases": 57,
        "newlyConfirmedCases": 0,
        "totalDeaths": 2,
        "newDeaths": 0,
        "totalRecoveredCases": 0,
        "newlyRecoveredCases": 0
      },
      {
        "location": {
          "long": -83.9783,
          "countryOrRegion": "United States",
          "provinceOrState": "Georgia",
          "county": "Thomas",
          "isoCode": "US-GA",
          "lat": 30.8394
        },
        "totalConfirmedCases": 26,
        "newlyConfirmedCases": 0,
        "totalDeaths": 0,
        "newDeaths": 0,
        "totalRecoveredCases": 0,
        "newlyRecoveredCases": 0
      },
      {
        "location": {
          "long": -83.5949,
          "countryOrRegion": "United States",
          "provinceOrState": "Georgia",
          "county": "Tift",
          "isoCode": "US-GA",
          "lat": 31.3389
        },
        "totalConfirmedCases": 34,
        "newlyConfirmedCases": 0,
        "totalDeaths": 0,
        "newDeaths": 0,
        "totalRecoveredCases": 0,
        "newlyRecoveredCases": 0
      },
      {
        "location": {
          "long": -82.3298,
          "countryOrRegion": "United States",
          "provinceOrState": "Georgia",
          "county": "Toombs",
          "isoCode": "US-GA",
          "lat": 32.1713
        },
        "totalConfirmedCases": 5,
        "newlyConfirmedCases": 0,
        "totalDeaths": 1,
        "newDeaths": 0,
        "totalRecoveredCases": 0,
        "newlyRecoveredCases": 0
      },
      {
        "location": {
          "long": -84.9027,
          "countryOrRegion": "United States",
          "provinceOrState": "Georgia",
          "county": "Troup",
          "isoCode": "US-GA",
          "lat": 33.1674
        },
        "totalConfirmedCases": 33,
        "newlyConfirmedCases": 0,
        "totalDeaths": 1,
        "newDeaths": 0,
        "totalRecoveredCases": 0,
        "newlyRecoveredCases": 0
      },
      {
        "location": {
          "long": -83.6354,
          "countryOrRegion": "United States",
          "provinceOrState": "Georgia",
          "county": "Turner",
          "isoCode": "US-GA",
          "lat": 31.671
        },
        "totalConfirmedCases": 12,
        "newlyConfirmedCases": 0,
        "totalDeaths": 0,
        "newDeaths": 0,
        "totalRecoveredCases": 0,
        "newlyRecoveredCases": 0
      },
      {
        "location": {
          "long": -83.246,
          "countryOrRegion": "United States",
          "provinceOrState": "Georgia",
          "county": "Twiggs",
          "isoCode": "US-GA",
          "lat": 32.606
        },
        "totalConfirmedCases": 2,
        "newlyConfirmedCases": 0,
        "totalDeaths": 0,
        "newDeaths": 0,
        "totalRecoveredCases": 0,
        "newlyRecoveredCases": 0
      },
      {
        "location": {
          "long": -84.3405,
          "countryOrRegion": "United States",
          "provinceOrState": "Georgia",
          "county": "Upson",
          "isoCode": "US-GA",
          "lat": 32.9369
        },
        "totalConfirmedCases": 12,
        "newlyConfirmedCases": 0,
        "totalDeaths": 0,
        "newDeaths": 0,
        "totalRecoveredCases": 0,
        "newlyRecoveredCases": 0
      },
      {
        "location": {
          "long": -83.8502,
          "countryOrRegion": "United States",
          "provinceOrState": "Georgia",
          "county": "Walton",
          "isoCode": "US-GA",
          "lat": 33.7455
        },
        "totalConfirmedCases": 18,
        "newlyConfirmedCases": 0,
        "totalDeaths": 0,
        "newDeaths": 0,
        "totalRecoveredCases": 0,
        "newlyRecoveredCases": 0
      },
      {
        "location": {
          "long": -82.3411,
          "countryOrRegion": "United States",
          "provinceOrState": "Georgia",
          "county": "Ware",
          "isoCode": "US-GA",
          "lat": 31.2406
        },
        "totalConfirmedCases": 18,
        "newlyConfirmedCases": 0,
        "totalDeaths": 3,
        "newDeaths": 0,
        "totalRecoveredCases": 0,
        "newlyRecoveredCases": 0
      },
      {
        "location": {
          "long": -82.7055,
          "countryOrRegion": "United States",
          "provinceOrState": "Georgia",
          "county": "Warren",
          "isoCode": "US-GA",
          "lat": 33.4626
        },
        "totalConfirmedCases": 5,
        "newlyConfirmedCases": 0,
        "totalDeaths": 0,
        "newDeaths": 0,
        "totalRecoveredCases": 0,
        "newlyRecoveredCases": 0
      },
      {
        "location": {
          "long": -82.8089,
          "countryOrRegion": "United States",
          "provinceOrState": "Georgia",
          "county": "Washington",
          "isoCode": "US-GA",
          "lat": 32.9827
        },
        "totalConfirmedCases": 5,
        "newlyConfirmedCases": 0,
        "totalDeaths": 0,
        "newDeaths": 0,
        "totalRecoveredCases": 0,
        "newlyRecoveredCases": 0
      },
      {
        "location": {
          "long": -82.7798,
          "countryOrRegion": "United States",
          "provinceOrState": "Georgia",
          "county": "Wheeler",
          "isoCode": "US-GA",
          "lat": 32.1469
        },
        "totalConfirmedCases": 1,
        "newlyConfirmedCases": 0,
        "totalDeaths": 0,
        "newDeaths": 0,
        "totalRecoveredCases": 0,
        "newlyRecoveredCases": 0
      },
      {
        "location": {
          "long": -83.7411,
          "countryOrRegion": "United States",
          "provinceOrState": "Georgia",
          "county": "White",
          "isoCode": "US-GA",
          "lat": 34.6437
        },
        "totalConfirmedCases": 4,
        "newlyConfirmedCases": 0,
        "totalDeaths": 0,
        "newDeaths": 0,
        "totalRecoveredCases": 0,
        "newlyRecoveredCases": 0
      },
      {
        "location": {
          "long": -85.0395,
          "countryOrRegion": "United States",
          "provinceOrState": "Georgia",
          "county": "Whitfield",
          "isoCode": "US-GA",
          "lat": 34.8497
        },
        "totalConfirmedCases": 16,
        "newlyConfirmedCases": 0,
        "totalDeaths": 1,
        "newDeaths": 0,
        "totalRecoveredCases": 0,
        "newlyRecoveredCases": 0
      },
      {
        "location": {
          "long": -82.742,
          "countryOrRegion": "United States",
          "provinceOrState": "Georgia",
          "county": "Wilkes",
          "isoCode": "US-GA",
          "lat": 33.8674
        },
        "totalConfirmedCases": 3,
        "newlyConfirmedCases": 0,
        "totalDeaths": 0,
        "newDeaths": 0,
        "totalRecoveredCases": 0,
        "newlyRecoveredCases": 0
      },
      {
        "location": {
          "long": -83.7368,
          "countryOrRegion": "United States",
          "provinceOrState": "Georgia",
          "county": "Worth",
          "isoCode": "US-GA",
          "lat": 31.5103
        },
        "totalConfirmedCases": 36,
        "newlyConfirmedCases": 0,
        "totalDeaths": 1,
        "newDeaths": 0,
        "totalRecoveredCases": 0,
        "newlyRecoveredCases": 0
      },
      {
        "location": {
          "long": -83.3523,
          "countryOrRegion": "United States",
          "provinceOrState": "Georgia",
          "county": "Bleckley",
          "isoCode": "US-GA",
          "lat": 32.3875
        },
        "totalConfirmedCases": 1,
        "newlyConfirmedCases": 0,
        "totalDeaths": 0,
        "newDeaths": 0,
        "totalRecoveredCases": 0,
        "newlyRecoveredCases": 0
      },
      {
        "location": {
          "long": -84.8691,
          "countryOrRegion": "United States",
          "provinceOrState": "Georgia",
          "county": "Clay",
          "isoCode": "US-GA",
          "lat": 31.5198
        },
        "totalConfirmedCases": 7,
        "newlyConfirmedCases": 0,
        "totalDeaths": 0,
        "newDeaths": 0,
        "totalRecoveredCases": 0,
        "newlyRecoveredCases": 0
      },
      {
        "location": {
          "long": -82.6967,
          "countryOrRegion": "United States",
          "provinceOrState": "Georgia",
          "county": "Jeff Davis",
          "isoCode": "US-GA",
          "lat": 31.7221
        },
        "totalConfirmedCases": 0,
        "newlyConfirmedCases": 0,
        "totalDeaths": 0,
        "newDeaths": 0,
        "totalRecoveredCases": 0,
        "newlyRecoveredCases": 0
      },
      {
        "location": {
          "long": -82.5287,
          "countryOrRegion": "United States",
          "provinceOrState": "Georgia",
          "county": "Jefferson",
          "isoCode": "US-GA",
          "lat": 33.1934
        },
        "totalConfirmedCases": 3,
        "newlyConfirmedCases": 0,
        "totalDeaths": 0,
        "newDeaths": 0,
        "totalRecoveredCases": 0,
        "newlyRecoveredCases": 0
      },
      {
        "location": {
          "long": -82.7197,
          "countryOrRegion": "United States",
          "provinceOrState": "Georgia",
          "county": "Johnson",
          "isoCode": "US-GA",
          "lat": 32.7265
        },
        "totalConfirmedCases": 2,
        "newlyConfirmedCases": 0,
        "totalDeaths": 0,
        "newDeaths": 0,
        "totalRecoveredCases": 0,
        "newlyRecoveredCases": 0
      },
      {
        "location": {
          "long": -84.5516,
          "countryOrRegion": "United States",
          "provinceOrState": "Georgia",
          "county": "Talbot",
          "isoCode": "US-GA",
          "lat": 32.5789
        },
        "totalConfirmedCases": 3,
        "newlyConfirmedCases": 0,
        "totalDeaths": 0,
        "newDeaths": 0,
        "totalRecoveredCases": 0,
        "newlyRecoveredCases": 0
      },
      {
        "location": {
          "long": -85.5096,
          "countryOrRegion": "United States",
          "provinceOrState": "Georgia",
          "county": "Dade",
          "isoCode": "US-GA",
          "lat": 34.8741
        },
        "totalConfirmedCases": 1,
        "newlyConfirmedCases": 0,
        "totalDeaths": 1,
        "newDeaths": 0,
        "totalRecoveredCases": 0,
        "newlyRecoveredCases": 0
      },
      {
        "location": {
          "long": -83.3854,
          "countryOrRegion": "United States",
          "provinceOrState": "Georgia",
          "county": "Rabun",
          "isoCode": "US-GA",
          "lat": 34.9196
        },
        "totalConfirmedCases": 3,
        "newlyConfirmedCases": 0,
        "totalDeaths": 0,
        "newDeaths": 0,
        "totalRecoveredCases": 0,
        "newlyRecoveredCases": 0
      },
      {
        "location": {
          "long": -84.3247,
          "countryOrRegion": "United States",
          "provinceOrState": "Georgia",
          "county": "Grady",
          "isoCode": "US-GA",
          "lat": 30.8845
        },
        "totalConfirmedCases": 3,
        "newlyConfirmedCases": 0,
        "totalDeaths": 0,
        "newDeaths": 0,
        "totalRecoveredCases": 0,
        "newlyRecoveredCases": 0
      },
      {
        "location": {
          "long": -83.218,
          "countryOrRegion": "United States",
          "provinceOrState": "Georgia",
          "county": "Oglethorpe",
          "isoCode": "US-GA",
          "lat": 33.9103
        },
        "totalConfirmedCases": 1,
        "newlyConfirmedCases": 0,
        "totalDeaths": 1,
        "newDeaths": 0,
        "totalRecoveredCases": 0,
        "newlyRecoveredCases": 0
      },
      {
        "location": {
          "long": -81.5331,
          "countryOrRegion": "United States",
          "provinceOrState": "Georgia",
          "county": "Screven",
          "isoCode": "US-GA",
          "lat": 32.5214
        },
        "totalConfirmedCases": 2,
        "newlyConfirmedCases": 0,
        "totalDeaths": 0,
        "newDeaths": 0,
        "totalRecoveredCases": 0,
        "newlyRecoveredCases": 0
      },
      {
        "location": {
          "long": -84.798,
          "countryOrRegion": "United States",
          "provinceOrState": "Georgia",
          "county": "Stewart",
          "isoCode": "US-GA",
          "lat": 32.0487
        },
        "totalConfirmedCases": 1,
        "newlyConfirmedCases": 0,
        "totalDeaths": 0,
        "newDeaths": 0,
        "totalRecoveredCases": 0,
        "newlyRecoveredCases": 0
      },
      {
        "location": {
          "long": -83.5029,
          "countryOrRegion": "United States",
          "provinceOrState": "Georgia",
          "county": "Wilcox",
          "isoCode": "US-GA",
          "lat": 32.1084
        },
        "totalConfirmedCases": 2,
        "newlyConfirmedCases": 0,
        "totalDeaths": 0,
        "newDeaths": 0,
        "totalRecoveredCases": 0,
        "newlyRecoveredCases": 0
      },
      {
        "location": {
          "long": -83.3349,
          "countryOrRegion": "United States",
          "provinceOrState": "Georgia",
          "county": "Wilkinson",
          "isoCode": "US-GA",
          "lat": 32.8866
        },
        "totalConfirmedCases": 2,
        "newlyConfirmedCases": 0,
        "totalDeaths": 0,
        "newDeaths": 0,
        "totalRecoveredCases": 0,
        "newlyRecoveredCases": 0
      },
      {
        "location": {
          "long": -82.592,
          "countryOrRegion": "United States",
          "provinceOrState": "Georgia",
          "county": "Emanuel",
          "isoCode": "US-GA",
          "lat": 32.5306
        },
        "totalConfirmedCases": 1,
        "newlyConfirmedCases": 0,
        "totalDeaths": 0,
        "newDeaths": 0,
        "totalRecoveredCases": 0,
        "newlyRecoveredCases": 0
      },
      {
        "location": {
          "long": -85.294,
          "countryOrRegion": "United States",
          "provinceOrState": "Georgia",
          "county": "Walker",
          "isoCode": "US-GA",
          "lat": 34.9296
        },
        "totalConfirmedCases": 3,
        "newlyConfirmedCases": 0,
        "totalDeaths": 0,
        "newDeaths": 0,
        "totalRecoveredCases": 0,
        "newlyRecoveredCases": 0
      },
      {
        "location": {
          "long": -83.2679,
          "countryOrRegion": "United States",
          "provinceOrState": "Georgia",
          "county": "Putnam",
          "isoCode": "US-GA",
          "lat": 33.2616
        },
        "totalConfirmedCases": 2,
        "newlyConfirmedCases": 0,
        "totalDeaths": 0,
        "newDeaths": 0,
        "totalRecoveredCases": 0,
        "newlyRecoveredCases": 0
      },
      {
        "location": {
          "long": -83.9548,
          "countryOrRegion": "United States",
          "provinceOrState": "Georgia",
          "county": "Union",
          "isoCode": "US-GA",
          "lat": 34.8761
        },
        "totalConfirmedCases": 1,
        "newlyConfirmedCases": 0,
        "totalDeaths": 0,
        "newDeaths": 0,
        "totalRecoveredCases": 0,
        "newlyRecoveredCases": 0
      },
      {
        "location": {
          "long": -83.0748,
          "countryOrRegion": "United States",
          "provinceOrState": "Georgia",
          "county": "Lanier",
          "isoCode": "US-GA",
          "lat": 31.041
        },
        "totalConfirmedCases": 1,
        "newlyConfirmedCases": 0,
        "totalDeaths": 0,
        "newDeaths": 0,
        "totalRecoveredCases": 0,
        "newlyRecoveredCases": 0
      },
      {
        "location": {
          "long": -83.0309,
          "countryOrRegion": "United States",
          "provinceOrState": "Georgia",
          "county": "Elbert",
          "isoCode": "US-GA",
          "lat": 34.2051
        },
        "totalConfirmedCases": 1,
        "newlyConfirmedCases": 0,
        "totalDeaths": 0,
        "newDeaths": 0,
        "totalRecoveredCases": 0,
        "newlyRecoveredCases": 0
      },
      {
        "location": {
          "long": -84.5177,
          "countryOrRegion": "United States",
          "provinceOrState": "Georgia",
          "county": "Marion",
          "isoCode": "US-GA",
          "lat": 32.3188
        },
        "totalConfirmedCases": 2,
        "newlyConfirmedCases": 0,
        "totalDeaths": 0,
        "newDeaths": 0,
        "totalRecoveredCases": 0,
        "newlyRecoveredCases": 0
      },
      {
        "location": {
          "long": -83.554,
          "countryOrRegion": "United States",
          "provinceOrState": "Georgia",
          "county": "Towns",
          "isoCode": "US-GA",
          "lat": 34.9789
        },
        "totalConfirmedCases": 1,
        "newlyConfirmedCases": 0,
        "totalDeaths": 0,
        "newDeaths": 0,
        "totalRecoveredCases": 0,
        "newlyRecoveredCases": 0
      },
      {
        "location": {
          "long": -82.0269,
          "countryOrRegion": "United States",
          "provinceOrState": "Georgia",
          "county": "Wayne",
          "isoCode": "US-GA",
          "lat": 31.6666
        },
        "totalConfirmedCases": 1,
        "newlyConfirmedCases": 0,
        "totalDeaths": 0,
        "newDeaths": 0,
        "totalRecoveredCases": 0,
        "newlyRecoveredCases": 0
      }
    ]
  }
}